seconds_elapsed,gyroscope_z,gyroscope_y,gyroscope_x,gravity_z,gravity_y,gravity_x,magnetometerUncalibrated_z,magnetometerUncalibrated_y,magnetometerUncalibrated_x,magnetometer_z,magnetometer_y,magnetometer_x,gyroscopeUncalibrated_z,gyroscopeUncalibrated_y,gyroscopeUncalibrated_x,watchBarometer_relativeAltitude,watchBarometer_pressure,orientation_yaw,orientation_qx,orientation_qz,orientation_roll,orientation_qw,orientation_qy,orientation_pitch,accelerometerUncalibrated_z,accelerometerUncalibrated_y,accelerometerUncalibrated_x,barometer_relativeAltitude,barometer_pressure,accelerometer_z,accelerometer_y,accelerometer_x,heartRate_bpm,wristMotion_rotationRateX,wristMotion_rotationRateY,wristMotion_rotationRateZ,wristMotion_gravityX,wristMotion_gravityY,wristMotion_gravityZ,wristMotion_accelerationX,wristMotion_accelerationY,wristMotion_accelerationZ,wristMotion_quaternionW,wristMotion_quaternionX,wristMotion_quaternionY,wristMotion_quaternionZ
0.000000,-0.001295,-0.000231,-0.000181,-8.795060,-0.401461,-4.319176,-927.827546,-271.766171,-38.565793,-175.004411,-12.486060,-64.833155,-0.002544,-0.000453,0.002176,,,0.533011,-0.078817,-0.252009,-0.456495,-0.940699,0.212985,0.040949,-0.898855,-0.055844,-0.437582,0.007927,1009.351807,-0.019340,-0.146676,0.027345,,-2.136357,-1.207857,-0.111895,-0.096668,0.039956,-0.639753,0.044411,-0.063775,0.219050,0.889202,-0.060498,-0.111668,0.047503
1.000000,-0.001562,-0.000504,0.000070,-8.796195,-0.480948,-4.308759,-928.423422,-271.392341,-38.540790,-178.608546,-10.255471,-67.214329,-0.002906,-0.000441,0.002250,,,0.531520,-0.082339,-0.250440,-0.455489,-0.941149,0.211513,0.049063,-0.898800,-0.055720,-0.437857,0.015854,1009.350815,-0.018211,-0.066413,0.015192,,1.762625,0.736124,-0.512772,-0.331388,0.132384,-0.761411,0.026338,-0.013863,0.063653,0.889590,-0.034031,-0.214745,0.258586
2.000000,-0.001637,-0.000505,0.000022,-8.799304,-0.530268,-4.296676,-928.160104,-271.454008,-38.518859,-178.232660,-10.342939,-67.193644,-0.002941,-0.000530,0.002010,,,0.530043,-0.084390,-0.249233,-0.454242,-0.941553,0.210330,0.054099,-0.898650,-0.055705,-0.437901,0.015854,1009.350815,-0.014019,-0.016532,0.002984,,0.137290,0.013621,-0.359464,0.014894,-0.339218,-0.938197,0.000008,0.007541,0.017888,0.982200,0.172856,0.014460,0.041340
3.000000,-0.001458,-0.000338,0.000128,-8.799206,-0.541023,-4.295539,-928.143369,-271.356205,-38.734577,-178.198282,-10.202913,-67.404826,-0.002775,-0.000042,0.002241,,,0.528722,-0.084754,-0.248492,-0.454142,-0.941747,0.210196,0.055197,-0.900549,-0.054485,-0.434221,0.015852,1009.350700,-0.031372,0.006441,0.036057,,0.069611,0.013773,0.004228,0.032106,-0.388432,-0.920642,-0.004325,-0.006058,0.009358,0.979885,0.198000,0.018788,0.011849
4.000000,-0.001386,-0.000977,-0.000044,-8.802922,-0.544627,-4.287460,-927.228870,-271.005757,-38.338380,-176.996848,-9.966564,-66.987789,-0.002740,-0.001099,0.002062,,,0.527352,-0.084670,-0.247844,-0.453234,-0.942018,0.209778,0.055565,-0.901538,-0.053891,-0.432529,0.010567,1009.351425,-0.038440,0.016266,0.046547,,-1.473612,-0.691614,0.321430,-0.064973,-0.311733,-0.898703,0.131032,-0.073668,0.043219,0.971065,0.162172,-0.027784,0.061461
5.000000,-0.002576,-0.000519,-0.001357,-8.800039,-0.547686,-4.292987,-924.961314,-270.299134,-37.353771,-173.945498,-9.443912,-66.004626,-0.004048,-0.000582,0.001074,0.010000,100.899323,0.525965,-0.084750,-0.247128,-0.453870,-0.942128,0.210096,0.055878,-0.893540,-0.058915,-0.447832,0.010567,1009.351425,0.039037,-0.031184,-0.099116,,-0.617851,-0.285030,-0.317140,-0.800290,0.493185,0.321858,-0.094533,-0.031477,0.042982,0.569887,-0.547388,-0.599766,-0.106876
6.000000,-0.034993,-0.024788,-0.013811,-8.727617,-0.573586,-4.431692,-924.842596,-268.220128,-38.505026,-168.747345,-19.407067,-57.020767,-0.036543,-0.024984,-0.011447,,,0.500051,-0.085061,-0.233922,-0.469852,-0.943483,0.218403,0.058523,-0.891944,-0.057319,-0.450523,,,-0.019768,0.012646,0.013944,93.000000,0.054023,0.008133,0.013732,-0.817955,0.489464,0.301740,-0.006851,-0.009024,-0.016140,0.579013,-0.543573,-0.596117,-0.117400
7.000000,0.025586,-0.051613,0.015433,-8.573418,-0.563410,-4.720437,-924.001006,-265.951074,-45.019124,-168.484556,-33.754981,-53.789831,0.024405,-0.051690,0.017873,-0.009999,100.899490,0.499883,-0.088613,-0.232479,-0.503295,-0.939672,0.234231,0.057484,-0.875946,-0.054814,-0.480616,0.034348,1009.348450,-0.017944,0.025215,0.007393,,0.003411,0.001183,-0.006361,-0.820644,0.497451,0.281097,-0.007533,-0.002558,-0.009979,0.588990,-0.535376,-0.594905,-0.111949
8.000000,0.007995,0.021345,0.001939,-8.542308,-0.551727,-4.784412,-922.210816,-264.679513,-48.212316,-179.942793,-44.601293,-53.517528,0.006543,0.021047,0.004131,,,0.522011,-0.091438,-0.242723,-0.510553,-0.936278,0.236838,0.056290,-0.872566,-0.054848,-0.486925,0.066055,1009.344940,-0.015232,0.013806,0.008880,,0.116087,0.006921,-0.044889,-0.830078,0.489321,0.266846,-0.005598,0.003761,-0.002380,0.594006,-0.528712,-0.594732,-0.116565
9.000000,-0.000984,-0.001774,0.000156,-8.548406,-0.547074,-4.774498,-921.977294,-264.698468,-48.188041,-178.786969,-44.862283,-52.691283,-0.002593,-0.001615,0.002406,,,0.523989,-0.091311,-0.243765,-0.509365,-0.936176,0.236252,0.055815,-0.873201,-0.053149,-0.486227,0.089836,1009.341965,-0.014909,0.025820,0.006996,,-0.092804,-0.005841,0.032383,-0.831195,0.478558,0.281888,-0.006016,-0.007082,-0.013835,0.585638,-0.536436,-0.594055,-0.125814
10.000000,-0.001233,-0.001099,-0.000009,-8.550486,-0.536152,-4.772012,-922.035105,-264.702018,-48.268850,-178.852710,-44.860524,-52.753085,-0.002828,-0.001073,0.002080,0.050000,100.899521,0.522904,-0.090623,-0.243411,-0.509039,-0.936325,0.236292,0.054700,-0.872916,-0.053032,-0.486554,0.134758,1009.336624,-0.009762,0.015692,0.000483,,0.033676,0.002123,0.005852,-0.832266,0.497893,0.243664,-0.004635,-0.001249,-0.008236,0.606086,-0.513436,-0.598503,-0.103972
11.000000,-0.000786,-0.000102,0.000020,-8.550476,-0.531041,-4.772603,-922.025126,-264.650030,-48.339425,-178.839227,-44.819918,-52.818352,-0.002681,-0.000574,0.002174,,,0.521943,-0.090272,-0.243024,-0.509093,-0.936425,0.236428,0.054178,-0.872717,-0.053205,-0.486931,0.190247,1009.329987,-0.007818,0.010095,-0.002625,93.000000,-0.009140,-0.005078,0.002002,-0.831833,0.501003,0.238844,-0.002215,0.000017,-0.002717,0.608250,-0.512925,-0.596933,-0.103001
12.000000,-0.000472,-0.000377,-0.000113,-8.550346,-0.528847,-4.773080,-921.915631,-264.580426,-48.313166,-178.726153,-44.743748,-52.782218,-0.002793,-0.001074,0.002093,0.160000,100.898628,0.521226,-0.090089,-0.242714,-0.509142,-0.936502,0.236512,0.053954,-0.872702,-0.053185,-0.486940,0.203457,1009.328308,-0.007701,0.007283,-0.002528,,-0.010093,0.000264,0.003185,-0.830824,0.500863,0.242627,-0.001196,0.000402,-0.000928,0.606349,-0.516179,-0.595709,-0.105006
13.000000,-0.000406,0.000209,-0.000160,-8.551347,-0.527147,-4.771475,-921.872775,-264.566845,-48.479591,-178.675274,-44.725509,-52.943982,-0.002786,-0.000464,0.002186,,,0.520856,-0.089941,-0.242571,-0.508949,-0.936566,0.236460,0.053780,-0.872910,-0.053119,-0.487056,0.211384,1009.327393,-0.007554,0.005710,-0.004533,,-0.008186,-0.001188,0.002606,-0.830073,0.500586,0.245748,-0.001374,0.000543,-0.000404,0.604837,-0.518394,-0.595096,-0.106288
14.000000,-0.000120,0.000028,0.000030,-8.551249,-0.525529,-4.771829,-922.026047,-264.603520,-48.359800,-178.815502,-44.753158,-52.824423,-0.002720,-0.000764,0.002209,,,0.520627,-0.089841,-0.242483,-0.508985,-0.936587,0.236508,0.053615,-0.872558,-0.053116,-0.486969,0.211384,1009.327393,-0.005969,0.004921,-0.004663,,-0.006019,-0.000585,0.001474,-0.829250,0.500112,0.249465,-0.001630,0.000609,-0.000608,0.603107,-0.520509,-0.594813,-0.107373
15.000000,-0.000039,-0.000008,0.000128,-8.551204,-0.525392,-4.771923,-921.988304,-264.637195,-48.367849,-178.792189,-44.781514,-52.832803,-0.002778,-0.001007,0.002198,0.190001,100.897591,0.520603,-0.089833,-0.242473,-0.508996,-0.936588,0.236516,0.053601,-0.872766,-0.053106,-0.487175,0.200817,1009.328690,-0.007553,0.004252,-0.006314,,-0.018789,0.000673,0.003605,-0.828085,0.499495,0.254507,-0.000409,0.000445,0.000008,0.600199,-0.526356,-0.591775,-0.111816
16.000000,0.000130,0.000185,0.000024,-8.551856,-0.524240,-4.770881,-921.991283,-264.717561,-48.336836,-178.788930,-44.866124,-52.801723,-0.002743,-0.000391,0.002131,,,0.520665,-0.089770,-0.242523,-0.508870,-0.936593,0.236470,0.053483,-0.872576,-0.053118,-0.487234,0.192890,1009.329758,-0.005608,0.003591,-0.006407,95.000000,0.059970,0.001820,0.002350,-0.827143,0.502865,0.250832,-0.003738,0.002942,-0.002812,0.602212,-0.524716,-0.591673,-0.109097
17.000000,0.000103,-0.000234,0.000063,-8.552018,-0.523402,-4.770684,-921.910773,-264.762249,-48.364644,-178.702992,-44.903745,-52.829422,-0.002855,-0.000576,0.002086,,,0.520743,-0.089736,-0.242571,-0.508845,-0.936585,0.236465,0.053398,-0.872764,-0.053178,-0.487060,0.171749,1009.332199,-0.006668,0.002701,-0.005831,,0.134598,-0.024867,-0.022287,-0.839755,0.526357,0.112776,-0.000788,-0.001035,0.002806,0.664124,-0.430195,-0.608054,-0.035259
18.000000,0.000083,-0.000090,-0.000085,-8.551218,-0.522525,-4.772214,-922.025455,-264.671780,-48.497297,-178.816623,-44.810755,-52.959884,-0.002923,-0.000600,0.002226,0.180000,100.897476,0.520787,-0.089721,-0.242595,-0.509021,-0.936557,0.236557,0.053308,-0.872444,-0.053117,-0.487115,0.166466,1009.332886,-0.004893,0.001786,-0.004845,,-0.023936,-0.023903,-0.009844,-0.832694,0.520195,0.189651,-0.005322,-0.003502,-0.007981,0.633861,-0.466711,-0.614003,-0.058193
19.000000,0.000222,0.000002,-0.000040,-8.550915,-0.521450,-4.772874,-922.036339,-264.712689,-48.559338,-178.835746,-44.850614,-53.022320,-0.002927,-0.000502,0.002030,,,0.520864,-0.089688,-0.242642,-0.509095,-0.936536,0.236602,0.053198,-0.872557,-0.053170,-0.487283,0.166466,1009.332886,-0.005777,-0.000276,-0.005850,,-0.044988,-0.000560,0.012656,-0.831579,0.501642,0.237948,-0.004741,-0.000583,-0.005247,0.613240,-0.480304,-0.623064,-0.070176
20.000000,0.000174,0.000069,-0.000181,-8.551103,-0.519546,-4.772745,-921.967447,-264.799914,-48.684039,-178.773063,-44.939890,-53.147582,-0.002887,-0.000450,0.002139,0.150001,100.897728,0.520929,-0.089603,-0.242697,-0.509074,-0.936527,0.236615,0.053004,-0.872413,-0.053233,-0.487384,0.174393,1009.331818,-0.004762,-0.001588,-0.007319,,0.017561,-0.000261,0.014426,-0.818035,0.526478,0.229707,-0.003032,-0.000338,-0.000543,0.617696,-0.483621,-0.617166,-0.057520
21.000000,0.000186,0.000191,-0.000058,-8.551850,-0.517159,-4.771665,-921.992861,-264.941575,-48.431819,-178.796720,-45.072055,-52.898587,-0.002888,-0.000426,0.002059,,,0.521003,-0.089481,-0.242768,-0.508941,-0.936529,0.236580,0.052760,-0.872504,-0.053029,-0.487234,,,-0.004565,-0.002705,-0.006109,95.000000,0.003460,0.003016,-0.002136,-0.826846,0.519870,0.214586,-0.002480,0.000010,-0.005283,0.623275,-0.481052,-0.613091,-0.065066
22.000000,0.000053,0.000063,0.000015,-8.552220,-0.517448,-4.770972,-922.257750,-264.820278,-48.392232,-179.071808,-44.955514,-52.860602,-0.002986,-0.000532,0.002261,,,0.521094,-0.089496,-0.242811,-0.508860,-0.936528,0.236535,0.052789,-0.872543,-0.053106,-0.487133,0.182320,1009.330978,-0.004540,-0.003508,-0.006578,95.000000,0.000319,0.001500,0.002343,-0.828624,0.519829,0.207744,-0.001432,0.000382,-0.001438,0.625942,-0.479482,-0.611529,-0.065759
23.000000,0.000185,0.000064,0.000072,-8.552232,-0.517324,-4.770964,-922.064585,-264.778740,-48.448648,-178.868614,-44.909996,-52.903529,-0.002788,-0.000578,0.002216,0.160000,100.898010,0.521206,-0.089503,-0.242865,-0.508859,-0.936514,0.236531,0.052777,-0.872542,-0.052934,-0.487258,0.195530,1009.329147,-0.004728,-0.001420,-0.006904,,-0.001967,-0.003751,-0.000870,-0.828516,0.520340,0.206898,-0.001295,0.000252,-0.001126,0.626340,-0.479026,-0.611542,-0.065185
24.000000,0.000096,-0.000036,-0.000058,-8.551631,-0.516438,-4.772137,-922.230240,-264.769171,-48.448678,-179.043340,-44.900160,-52.910139,-0.002756,-0.000656,0.002244,,,0.521301,-0.089489,-0.242914,-0.508994,-0.936485,0.236601,0.052686,-0.872482,-0.053062,-0.487242,0.208744,1009.327850,-0.004362,-0.004053,-0.005980,,-0.001721,-0.000428,0.001762,-0.828036,0.520887,0.207441,-0.001104,0.000555,-0.000507,0.626111,-0.479722,-0.611218,-0.065305
25.000000,-0.000075,-0.000095,-0.000089,-8.551952,-0.514954,-4.771722,-922.234035,-264.826263,-48.291139,-179.040135,-44.958961,-52.744296,-0.002897,-0.000546,0.002065,0.190001,100.897911,0.521351,-0.089417,-0.242959,-0.508941,-0.936482,0.236593,0.052535,-0.872435,-0.053017,-0.487189,0.221954,1009.326172,-0.003946,-0.005413,-0.005841,,-0.000838,-0.004837,-0.001110,-0.827849,0.520520,0.209102,-0.000962,0.000588,-0.000881,0.625479,-0.479689,-0.611923,-0.065001
26.000000,-0.000178,-0.000405,0.000119,-8.550854,-0.515941,-4.773582,-922.071230,-264.794987,-48.280961,-178.884406,-44.922655,-52.741988,-0.003003,-0.000797,0.002269,,,0.521247,-0.089479,-0.242888,-0.509161,-0.936471,0.236688,0.052636,-0.872491,-0.053073,-0.487396,0.235165,1009.324722,-0.006317,-0.004756,-0.006685,,-0.002366,-0.006476,0.001267,-0.827362,0.520254,0.211669,-0.000947,0.000413,-0.000509,0.624466,-0.480189,-0.612578,-0.064865
27.000000,0.000091,0.000171,-0.000022,-8.550214,-0.516483,-4.774669,-922.125317,-264.851163,-48.338626,-178.930230,-44.983039,-52.796114,-0.002847,-0.000249,0.002225,,,0.521136,-0.089507,-0.242823,-0.509290,-0.936470,0.236746,0.052691,-0.872492,-0.053118,-0.487417,0.235165,1009.324722,-0.005884,-0.004515,-0.006370,,-0.095437,0.018480,-0.018376,-0.828361,0.518936,0.210366,-0.008396,0.002133,-0.006557,0.624666,-0.481010,-0.611363,-0.067014
28.000000,-0.000032,-0.000339,-0.000535,-8.540123,-0.518614,-4.792421,-921.938517,-265.076034,-48.776411,-178.984882,-45.170963,-53.197419,-0.003087,-0.001205,0.001804,0.220000,100.897293,0.520617,-0.089800,-0.242460,-0.511375,-0.936290,0.237718,0.052909,-0.871355,-0.053444,-0.489259,0.224598,1009.325943,-0.004298,-0.005698,-0.004929,,-0.093868,-0.013428,0.039766,-0.818015,0.474667,0.324046,0.004953,0.001904,-0.001724,0.565973,-0.557617,-0.592385,-0.131977
29.000000,0.000626,-0.000127,-0.000097,-8.549501,-0.511065,-4.776529,-921.672022,-264.991128,-48.551224,-179.103257,-45.011971,-52.844483,-0.002277,-0.000575,0.002101,,,0.521174,-0.089278,-0.242901,-0.509491,-0.936431,0.236910,0.052138,-0.872370,-0.052442,-0.487608,0.224598,1009.325943,-0.005249,-0.004407,-0.005629,,0.015962,-0.001503,0.000781,-0.814143,0.497590,0.299264,-0.004108,0.002044,-0.008142,0.581552,-0.541092,-0.597368,-0.110279
30.000000,0.000151,-0.000340,-0.000097,-8.547975,-0.510211,-4.779351,-921.599073,-264.810345,-48.695300,-179.024110,-44.824025,-52.994120,-0.002741,-0.000840,0.002292,0.190001,100.897385,0.521252,-0.089286,-0.242934,-0.509819,-0.936380,0.237071,0.052051,-0.872189,-0.052678,-0.487890,0.269516,1009.320297,-0.004960,-0.005880,-0.005378,94.000000,0.005014,-0.006972,-0.001089,-0.815148,0.499718,0.292943,-0.001790,0.000871,-0.002131,0.584597,-0.538266,-0.597278,-0.108509
31.000000,-0.000138,0.000143,-0.000008,-8.547339,-0.510389,-4.780470,-921.549615,-264.755418,-48.720758,-178.985839,-44.764008,-53.020502,-0.002946,-0.000455,0.002130,,,0.521267,-0.089313,-0.242933,-0.509950,-0.936364,0.237129,0.052069,-0.872261,-0.052565,-0.487937,0.303867,1009.316254,-0.006952,-0.004552,-0.005144,,0.000546,-0.001851,0.000259,-0.814536,0.500773,0.292845,-0.001498,0.000699,-0.000830,0.584879,-0.537674,-0.597770,-0.107212
32.000000,0.000183,-0.000060,-0.000080,-8.547414,-0.511352,-4.780231,-921.640106,-264.784421,-48.653237,-179.074340,-44.800456,-52.959504,-0.002764,-0.000462,0.002073,,,0.521255,-0.089354,-0.242916,-0.509925,-0.936370,0.237105,0.052167,-0.872133,-0.052459,-0.487933,0.327648,1009.313354,-0.005174,-0.003470,-0.005111,,-0.000195,-0.002318,-0.000160,-0.814587,0.500636,0.292934,-0.001454,0.000416,-0.000506,0.584896,-0.537299,-0.598145,-0.106907
33.000000,0.000128,0.000148,-0.000084,-8.547701,-0.511133,-4.779743,-921.778977,-264.918193,-48.743054,-179.216594,-44.937385,-53.048112,-0.002703,-0.000497,0.002103,0.280001,100.897125,0.521331,-0.089346,-0.242957,-0.509867,-0.936367,0.237078,0.052145,-0.872251,-0.052594,-0.487962,0.443909,1009.299622,-0.006698,-0.004550,-0.005162,,-0.000431,-0.001305,0.000012,-0.814445,0.500582,0.293424,-0.001156,0.000731,-0.000373,0.584725,-0.537241,-0.598401,-0.106697
34.000000,-0.008909,-0.023284,0.003386,-8.529815,-0.522981,-4.809864,-919.915641,-267.180512,-50.964742,-176.355953,-46.549162,-53.998904,-0.011539,-0.023861,0.005678,,,0.520279,-0.090214,-0.242148,-0.513444,-0.936088,0.238646,0.053355,-0.705083,-0.148066,-0.764376,0.544315,1009.287567,1.603441,-0.921921,-2.662935,,0.055795,-0.013378,0.016454,-0.811362,0.507439,0.290010,-0.199020,-0.232171,-0.132117,0.587190,-0.534842,-0.599113,-0.100712
35.000000,0.017636,-0.055473,0.012018,-8.247350,-0.552965,-5.275967,-904.445584,-248.565914,-49.991180,21.465192,24.971671,-84.160276,0.013263,-0.053133,0.013931,,,0.534620,-0.100241,-0.245772,-0.569111,-0.927406,0.263497,0.056417,-0.268017,-0.336053,-1.388075,1.101845,1009.220657,5.616941,-2.757077,-8.341460,,0.021779,0.001811,-0.002120,-0.808111,0.521535,0.273674,-0.630619,-0.757517,-0.399267,0.596591,-0.522990,-0.602745,-0.085000
36.000000,-0.002645,-0.020308,-0.004449,-8.073872,-0.558143,-5.537771,-927.098937,-267.782426,-71.533553,82.913531,-337.066780,1393.252528,-0.005142,-0.017171,-0.004608,0.480000,100.895622,0.535068,-0.104465,-0.244268,-0.601192,-0.923030,0.278250,0.056946,-0.413121,-0.255966,-1.139618,,,4.045565,-1.940374,-5.663166,103.000000,0.012583,0.007870,-0.002154,-0.815579,0.519582,0.254435,-0.425287,-0.515985,-0.264546,0.605008,-0.511368,-0.604734,-0.081978
37.000000,-0.007222,0.181106,-0.001225,-8.249540,-0.519864,-5.239828,-946.656646,-237.498765,-55.067877,-1011.724762,-1697.854598,418.746972,-0.010771,0.175439,0.001894,,,0.534225,-0.098234,-0.246111,-0.565798,-0.927345,0.262285,0.053036,-0.640485,-0.146340,-0.811878,1.910397,1009.123840,2.006531,-0.930900,-2.772974,,-0.018959,-0.005699,0.001959,-0.820265,0.510991,0.256738,-0.189936,-0.245858,-0.127029,0.603228,-0.511658,-0.605445,-0.087779
38.000000,-0.001477,-0.019228,-0.002650,-8.842146,-0.559061,-4.202534,-951.645304,-264.644307,-92.896859,-103.671600,-1613.977913,-1117.158853,-0.006204,-0.015023,0.000814,1.780001,100.891357,0.520741,-0.083502,-0.244961,-0.443680,-0.943830,0.205357,0.057039,-0.916212,-0.051284,-0.410220,1.910397,1009.123840,-0.154913,0.059472,0.177428,100.000000,-0.030810,0.012634,-0.030704,-0.842110,0.485758,0.230638,0.030440,0.045935,0.014920,0.612064,-0.494798,-0.608425,-0.098184
39.000000,0.000273,0.011984,-0.009351,-8.881412,-0.547738,-4.121426,-911.091701,-263.375961,-47.474279,-639.708309,-1548.577174,1208.079124,-0.004830,0.005411,-0.002470,,,0.520578,-0.081811,-0.245392,-0.434477,-0.944779,0.201170,0.055883,-0.919541,-0.045861,-0.402934,2.068935,1009.104843,-0.097053,0.107639,0.173155,,-0.048387,-0.001222,-0.004831,-0.848430,0.457846,0.264542,0.007936,0.066609,0.033697,0.593964,-0.510373,-0.609698,-0.121679
40.000000,0.002854,-0.544350,0.098319,-8.221956,-0.803769,-5.020252,-899.663787,-272.685014,-42.912650,-99.969276,337.090415,-105.806455,0.000903,-0.543979,0.098909,,,0.528949,-0.108945,-0.238613,-0.549356,-0.928198,0.249985,0.082081,-2.073736,-0.086790,-0.850110,2.930332,1009.001770,-11.984174,-0.043664,-3.279036,,-0.000435,0.205544,-0.482411,-0.898057,0.337942,0.234932,-0.754515,0.870014,0.525341,0.589545,-0.475099,-0.623945,-0.176670
41.000000,-0.097304,-1.388140,0.339164,1.063487,-2.009725,-8.678150,-880.757698,-270.832309,-57.784781,10.257541,273.163315,-70.989174,-0.100984,-1.387049,0.342246,1.700000,100.869370,0.705812,-0.318368,-0.143954,-1.694557,-0.633222,0.658744,0.206538,-2.607785,-0.056113,-1.245814,6.407623,1008.585663,-26.715347,1.474307,-3.539647,,-0.031299,0.682605,-1.260466,-0.703605,-0.546086,-0.197191,-1.491507,1.813764,1.159811,0.531753,-0.086394,-0.603993,-0.548094
42.000000,0.135134,-1.144883,0.946562,8.603510,2.021311,-0.849249,-862.319551,-261.983555,-41.466242,20.047841,36.170231,-10.434416,0.132553,-1.146399,0.947641,,,0.874762,-0.429041,-0.117083,-0.240616,0.008535,0.868271,-0.217159,-0.658063,-0.366054,-0.393693,9.092220,1008.264465,-15.083475,-5.612106,-3.031530,102.000000,0.620293,0.697786,-1.182018,0.453812,-0.784577,-0.050157,-1.153720,0.985263,0.002833,0.215314,0.496350,-0.448825,-0.677455
43.000000,-0.318093,-0.976638,1.585817,-1.415696,7.679996,3.440600,-881.127219,-234.446684,-14.384368,18.037646,73.039924,-31.221613,-0.319778,-0.977908,1.589643,8.120001,100.850571,-0.379349,-0.303411,-0.431733,1.262468,0.600732,0.541821,-0.917597,-1.673951,0.137783,-0.672656,11.618279,1007.962189,-14.916928,-6.331294,-10.019167,,0.879016,1.269144,-0.800468,0.371083,0.077216,0.798208,-1.456545,0.619379,0.005877,-0.121990,0.888823,-0.316784,-0.182859
44.000000,-0.565873,-1.067385,2.043072,-4.215606,-5.505514,-3.050998,-901.088886,-258.976343,-28.731716,-4.344003,6.949479,-50.732433,-0.569031,-1.064333,2.045871,,,-0.943126,0.103919,-0.589602,-0.974421,0.584012,-0.427219,0.682665,-2.741408,-1.138402,-0.915191,15.830135,1007.458420,-22.687981,-5.616868,-5.931864,,1.266928,1.827393,-0.998103,-0.644242,0.268439,-0.305195,-1.465415,1.446875,0.224939,-0.326193,0.516882,0.015616,0.709743
45.000000,-0.516531,-0.937853,1.003470,7.302878,-4.592260,2.375160,-863.050265,-271.289822,-34.790496,24.795038,-8.078214,-29.961947,-0.518969,-0.933525,1.003863,,,0.705527,0.320829,-0.288027,1.250522,-0.032654,-0.876086,0.519060,-0.537145,-0.444650,-0.331446,15.830135,1007.458420,-12.596887,0.194654,-5.623989,,0.350629,1.187797,-0.995618,0.434169,-0.494942,-0.611787,-0.952405,0.756782,0.269281,-0.119397,-0.291547,0.258903,0.884289
46.000000,-0.234142,-1.354291,0.462285,0.662868,1.910951,8.682173,-850.491873,-247.878924,-9.333076,34.229700,17.628867,-0.282122,-0.238815,-1.353377,0.464571,16.050001,100.746346,0.696094,0.317270,-0.157575,1.640743,-0.645149,-0.642131,-0.196883,-1.708365,0.010342,-0.693096,13.341072,1007.756119,-17.356119,-1.792214,-15.458964,,-0.225745,0.702484,-1.269551,0.828508,0.345023,0.144464,-2.106324,0.464002,0.498176,0.172463,-0.734781,-0.092778,0.612475
47.000000,0.133547,-1.151305,0.594334,-8.730846,-0.493688,2.570223,-863.004870,-272.868637,-10.352747,0.969492,-10.653327,4.217130,0.133250,-1.151960,0.596053,,,0.467103,0.005671,-0.215040,0.284165,-0.947602,-0.142132,0.051182,-3.410408,-0.808510,-0.753281,10.487366,1008.097534,-24.726078,-7.441875,-9.976019,,0.250978,0.636054,-1.164830,-0.243630,0.805179,0.366129,-2.466325,1.295074,0.582173,0.504772,-0.653351,-0.491896,0.185459
48.000000,-0.360870,-0.710579,0.558201,-5.706163,-6.653304,-3.675123,-848.268671,-284.520749,-24.546402,0.449717,-6.316779,-11.102905,-0.364738,-0.706512,0.561067,12.300000,100.711861,0.508771,-0.406520,-0.104078,-0.612129,-0.878488,0.176632,0.764626,-2.395080,-0.271901,-0.622957,10.165005,1008.136063,-17.891832,3.963478,-2.476639,,-0.067104,0.859456,-0.498279,-0.832130,0.381013,-0.316317,-1.035957,0.938607,1.096507,0.768838,-0.374356,-0.439092,-0.233115
49.000000,-0.408871,-0.555258,-0.038126,-1.839897,-9.188861,-2.735887,-842.312550,-293.808185,-16.539260,8.694885,-23.935511,-9.036480,-0.411795,-0.554760,-0.039119,,,0.217103,-0.549216,0.180603,-0.958042,-0.742837,0.322243,1.224529,-1.098401,-0.227584,-0.307835,9.171490,1008.254776,-8.973484,6.976886,-0.293011,,-0.385744,0.431238,-0.337240,-0.615670,0.223294,-0.748652,-0.314594,0.412523,0.969382,0.774402,-0.277681,-0.208253,-0.518619
50.000000,-0.486242,-0.630969,-0.173726,-2.551273,-9.402167,0.439196,-869.784368,-289.350902,-11.107790,-20.498737,-37.172863,15.082766,-0.488466,-0.626631,-0.170896,,,-1.481269,-0.479238,0.514756,0.098529,-0.594076,0.372684,1.290418,-0.978734,-0.287336,-0.273458,9.171490,1008.254776,-7.039663,6.579778,-3.115200,,-0.629304,0.424619,-0.381578,-0.421121,0.467747,-0.769987,-0.455985,0.112069,0.925279,0.599803,-0.325575,0.049255,-0.719758
51.000000,-0.552763,-0.544182,-0.046938,-4.606302,-8.125210,2.824938,-876.525704,-278.217167,-23.912129,-30.261949,-20.823515,16.130645,-0.555455,-0.551797,-0.046926,9.420000,100.763962,-2.630531,-0.347541,0.782982,0.544485,-0.331658,0.378265,0.983611,-1.045003,-0.183150,-0.324877,,,-5.651299,6.323768,-6.011666,128.000000,-0.491650,0.519262,-0.269083,-0.332420,0.711374,-0.612682,-0.562784,-0.134863,0.867076,0.322541,-0.309771,0.302820,-0.833723
52.000000,-0.448594,-0.443862,0.075070,-6.212037,-6.342691,4.122035,-872.932824,-279.234823,-33.153265,-29.112085,-19.271746,0.718622,-0.450916,-0.443028,0.076742,,,2.001639,-0.240302,0.899708,0.587234,-0.014483,0.352237,0.704640,-1.207959,-0.141326,-0.366707,9.327389,1008.236160,-5.631009,4.968031,-7.715812,128.000000,-0.331461,0.475811,-0.240277,-0.244518,0.871000,-0.421616,-0.753464,-0.192111,0.789381,0.057487,-0.176847,0.504998,-0.837670
53.000000,-0.300797,-0.548669,0.225997,-7.111454,-6.012473,2.992599,-865.807265,-280.486167,-46.001317,-4.621846,30.887285,-31.495301,-0.303266,-0.552368,0.225120,,,2.483926,-0.073227,0.894657,0.396247,0.238842,0.357262,0.660409,-1.728680,-0.296543,-0.476763,9.327389,1008.236160,-9.852035,3.100350,-7.670539,,-0.138647,0.582471,-0.361187,-0.346424,0.867587,-0.350689,-1.058992,0.110665,0.840511,-0.209189,-0.069382,0.564573,-0.789308
54.000000,-0.274439,-0.814867,0.148623,-6.743070,-7.023922,0.041431,-847.544897,-293.608748,-55.160262,-6.069824,-31.758305,-70.564375,-0.277225,-0.816551,0.150899,10.000000,100.767342,2.047428,0.200261,0.780578,-0.001417,0.477066,0.326649,0.799489,-2.323094,-0.300952,-0.664228,7.475121,1008.457947,-16.049968,4.068786,-6.551296,,-0.314453,0.478968,-0.631453,-0.584537,0.674890,-0.434210,-1.300784,0.676091,1.170756,-0.554521,0.002332,0.531077,-0.626985
55.000000,-0.370678,-0.677202,-0.177687,-5.688650,-7.508738,-2.705079,-839.813711,-289.046583,-49.459342,-13.924807,-149.234582,-75.527383,-0.371895,-0.676676,-0.175641,,,1.576930,0.428549,0.558495,-0.443928,0.685024,0.149725,0.872106,-1.731089,0.022355,-0.587278,6.000706,1008.634338,-11.287138,7.719949,-3.064766,,-0.487318,0.318086,-0.430616,-0.701017,0.467584,-0.536481,-0.700065,0.384671,1.289205,-0.808806,0.098550,0.468119,-0.323069
56.000000,-0.388053,-0.500205,-0.134904,-5.457038,-7.671523,-2.742835,-849.808800,-295.877962,-35.534511,-175.088321,-341.295775,-129.027065,-0.391349,-0.501131,-0.130490,6.250000,100.779366,0.883694,0.469077,0.283073,-0.465710,0.831245,-0.007541,0.898410,-1.310000,-0.087405,-0.420611,6.000706,1008.634338,-7.389394,6.835363,-1.387970,,-0.503144,0.382853,-0.328186,-0.693375,0.497519,-0.519849,-0.413939,0.216477,1.022126,-0.867118,0.269941,0.404936,-0.031024
57.000000,-0.420858,-0.636756,-0.105301,-4.794742,-8.235417,-2.298080,-832.971305,-296.518449,-20.287488,-112.687523,-195.060938,-63.137259,-0.423323,-0.637984,-0.102194,,,0.230595,0.483255,-0.006126,-0.446666,0.857153,-0.139608,0.997471,-1.259544,-0.235003,-0.350336,7.313942,1008.477173,-7.564447,5.928508,-1.128792,,-0.519297,0.392263,-0.395346,-0.660254,0.510557,-0.550090,-0.314626,0.238857,0.833924,-0.839806,0.380592,0.276595,0.245600
58.000000,-0.540857,-0.783546,-0.382300,-5.135901,-8.087637,-2.010934,-866.975791,-283.698661,-15.842727,-98.348957,-133.797418,-15.259169,-0.543653,-0.784246,-0.379104,,,-0.786198,0.359304,-0.411460,-0.376935,0.758958,-0.321960,0.971670,-1.215572,-0.167057,-0.394305,10.450375,1008.101959,-6.791164,6.451759,-1.858332,,-0.806156,0.443307,-0.472932,-0.689594,0.540826,-0.477752,-0.385015,0.084734,0.803021,-0.613253,0.500291,0.065883,0.589097
59.000000,-0.598380,-0.489208,-0.637615,-7.517134,-5.863384,-1.854242,-873.888275,-270.559616,-41.850936,-70.312749,-69.259516,-34.763368,-0.601485,-0.491875,-0.636321,7.140000,100.817245,-1.831400,0.107420,-0.764339,-0.243821,0.534364,-0.312392,0.647982,-1.007814,0.029865,-0.380738,13.335789,1007.756805,-2.385961,6.123510,-1.874707,124.000000,-0.993795,0.210852,-0.182898,-0.769928,0.596957,-0.188979,-0.108032,-0.177142,0.594821,-0.245739,0.591810,-0.214986,0.722147
60.000000,-0.295148,-0.158572,-0.363214,-9.280426,-1.826693,-2.433392,-867.415310,-268.561676,-44.041418,-40.314490,-52.047362,-27.544572,-0.294629,-0.157154,-0.357439,,,-2.558656,-0.092511,-0.946695,-0.255954,0.271890,-0.123930,0.188165,-0.954483,0.137066,-0.383180,15.214478,1007.531967,-0.062045,3.195383,-1.334257,,-0.455805,0.022539,-0.018057,-0.823698,0.527795,0.191518,0.006175,-0.150526,0.391947,0.063813,0.601522,-0.481751,0.629722
61.000000,-0.004158,0.006480,0.012357,-9.372945,-1.113981,-2.660090,-866.941050,-269.140933,-56.929731,-29.128570,-62.547305,-24.372653,-0.007097,0.006133,0.014541,14.240000,100.760719,-2.667632,-0.120529,-0.963054,-0.276534,0.224529,-0.087077,0.113841,-0.955495,-0.125093,-0.281611,16.237053,1007.409592,-0.005657,-0.117857,-0.109055,,0.002579,-0.015470,-0.001589,-0.832820,0.493613,0.250064,0.061596,0.056390,0.022076,0.101511,0.603868,-0.510240,0.603835
62.000000,0.065716,-0.008298,-0.030630,-9.370927,-1.085367,-2.676433,-864.597183,-284.763485,-43.182625,-23.573849,-13.192952,-31.463331,0.062792,-0.009604,-0.029000,,,-2.660231,-0.121393,-0.962106,-0.278201,0.228233,-0.086322,0.110911,-0.957380,-0.160974,-0.277502,16.237053,1007.409592,-0.013666,-0.482662,-0.041926,,0.004917,-0.063398,-0.038359,-0.831229,0.489578,0.262606,0.038311,0.097941,-0.023515,0.100862,0.608142,-0.511267,0.598713
63.000000,0.837385,-0.106341,0.032800,-9.191762,0.693096,-3.269856,-868.187709,-270.919746,-34.496479,-83.599501,69.361070,-20.928953,0.834985,-0.109456,0.033942,,,-2.253133,-0.170365,-0.878859,-0.341827,0.424890,-0.043836,-0.070885,-0.994184,-0.563736,-0.233901,16.025669,1007.434921,-0.571298,-6.212740,0.971542,,0.450792,-0.585919,-0.435310,-0.791162,0.375344,0.473499,-0.107672,0.338411,-0.548881,0.020891,0.758457,-0.386911,0.508098
64.000000,1.061824,-0.246054,-0.182663,-8.773310,3.561678,-2.202379,-875.437140,-255.868879,-13.668130,-78.706527,44.601173,9.327085,1.058898,-0.246167,-0.180236,16.550001,100.701614,-1.298464,-0.225108,-0.565324,-0.243779,0.777122,0.010791,-0.374874,-0.992775,-0.575388,-0.209192,14.374218,1007.632523,-0.955458,-9.212585,0.154146,,0.344422,-0.792550,-0.635337,-0.527334,0.340997,0.763658,-0.282779,0.437579,-0.847941,-0.156146,0.929514,-0.046696,0.291298
65.000000,1.022783,-0.805636,-0.226783,-6.730309,7.052625,-0.372684,-877.908076,-257.485665,-9.451789,-110.055806,111.951243,46.318433,1.020526,-0.807214,-0.225474,,,-0.009461,-0.390727,0.000382,-0.048633,0.900121,-0.028754,-0.806432,-1.408138,-0.463656,-0.376205,11.398968,1007.988510,-7.073606,-11.599625,-3.317951,,0.134479,-0.624222,-1.162220,-0.114965,0.250273,0.956092,-0.982255,0.617714,-0.664411,-0.129167,0.852953,0.467616,-0.005377
66.000000,0.481533,-0.743579,0.263096,-6.912229,6.886704,0.140754,-882.784269,-263.414909,-24.422054,-106.502637,110.055644,2.713220,0.480035,-0.739205,0.264288,,,1.153328,-0.323081,0.496058,0.026063,0.771497,-0.192287,-0.781839,-1.846963,-0.259795,-0.543456,,,-11.191937,-9.433838,-5.462795,,0.226875,0.041848,-0.879179,-0.133131,0.366989,0.912526,-1.330988,0.679603,-0.285715,-0.153653,0.487500,0.838958,-0.134081
67.000000,0.199723,-0.942424,0.447616,-7.275192,4.213871,-4.583404,-867.771776,-275.126096,-54.720268,-45.573792,74.560720,-60.806761,0.197161,-0.952546,0.448865,14.030001,100.709465,1.667008,0.055785,0.723697,-0.552611,0.584188,-0.327801,-0.445990,-2.595602,-0.159636,-0.826375,9.034092,1008.271408,-18.193451,-5.780776,-3.523426,,0.225548,0.439443,-0.921608,-0.658041,0.187417,0.690583,-1.347736,1.215196,0.331307,-0.373943,0.059012,0.907894,-0.089324
68.000000,0.327888,-0.189794,0.310735,-4.875732,3.238235,-7.852671,-856.658760,-266.986257,-62.122267,-18.834331,57.452116,-49.852233,0.324346,-0.191869,0.312026,,,2.078256,0.338556,0.781436,-1.014890,0.365713,-0.368825,-0.336750,-1.053647,-0.182673,-0.385899,7.934887,1008.402786,-5.531143,-5.027842,4.048371,,0.446106,-0.071037,-0.359945,-0.846692,-0.166108,0.501459,-0.100009,0.772341,-0.223187,-0.491202,-0.305895,0.807178,-0.082781
69.000000,0.725169,-0.120591,0.320782,-5.847474,5.301785,-5.701613,-862.809988,-268.625300,-61.697937,-24.127707,24.053792,2.559608,0.722387,-0.122437,0.321295,8.270000,100.767975,2.232319,0.300579,0.882992,-0.767330,0.073626,-0.333394,-0.573149,-0.876041,-0.333073,-0.287575,7.295444,1008.479309,-2.727784,-8.556189,2.879762,,0.612057,-0.262860,-0.397481,-0.671571,-0.071480,0.725934,-0.118736,0.614433,-0.635528,-0.318889,-0.532837,0.755723,-0.170227
70.000000,0.911196,-0.534252,0.155930,-6.307298,7.036747,-2.436494,-872.258458,-240.447342,-34.512954,-28.884739,54.115447,-11.911866,0.908341,-0.537062,0.157062,,,-2.399632,0.297060,0.805600,-0.362263,-0.385852,-0.299674,-0.801650,-1.226244,-0.396594,-0.352816,7.028568,1008.511429,-5.721978,-10.943812,-1.018184,,0.415271,-0.425502,-0.871378,-0.360019,0.059763,0.924778,-0.638529,0.712107,-0.775707,-0.073962,-0.831009,0.503790,-0.166293
71.000000,0.668862,-0.721781,0.351720,-6.689952,7.069493,-0.943678,-866.200536,-244.709689,-1.844535,-11.828142,43.764773,16.415034,0.665498,-0.723767,0.352923,,,-1.185239,0.354696,0.482055,-0.140553,-0.768634,-0.167721,-0.807974,-1.656800,-0.417357,-0.483301,7.028568,1008.511429,-9.544078,-11.143413,-3.800490,,0.448851,-0.111524,-0.956581,-0.199615,0.167296,0.961912,-1.170205,0.795404,-0.542860,0.081018,-0.979228,0.041095,-0.098143
72.000000,0.242363,-1.017758,0.101060,-7.561236,4.564490,-3.571896,-879.105681,-255.871851,-8.826201,-14.486842,21.829594,5.583278,0.235501,-1.021992,0.094507,6.860001,100.802467,-0.485359,0.271621,0.175399,-0.442469,-0.921386,0.148653,-0.484998,-2.372312,-0.013375,-0.753622,7.269020,1008.482590,-15.714109,-4.817745,-3.771952,,-0.121812,0.159172,-1.030243,-0.513829,0.193813,0.799849,-1.240117,1.064390,0.096020,0.215833,-0.857650,-0.381954,-0.213229
73.000000,0.066919,-1.738214,-0.707389,3.517453,4.436715,-6.295151,-836.417936,-260.204921,-52.190083,0.030271,38.055341,-43.346290,0.065635,-1.744695,-0.706117,,,-0.832631,0.452156,0.003316,-2.055016,-0.518365,0.674485,-0.472000,-1.501961,0.717909,-0.977264,7.269020,1008.482590,-18.365225,2.611292,-3.300739,,-0.986887,-0.039080,-1.546057,-0.127453,-0.780040,0.378450,-1.058727,0.915739,0.887313,-0.212893,-0.454188,-0.670295,-0.481865
74.000000,0.295845,-1.785232,-0.690909,5.044344,-2.222301,6.244980,-806.249868,-277.512026,-14.046321,28.422929,3.483851,3.896598,0.293339,-1.788892,-0.695245,7.830000,100.798416,-1.053955,0.499715,-0.122282,2.100236,0.408129,0.701234,0.232775,-1.080702,-0.302810,-0.196633,5.316345,1008.716278,-15.761513,-0.767000,-8.199365,,-1.141957,-0.291381,-1.719310,0.704511,0.106024,-0.424953,-1.389781,0.305814,0.700947,-0.741035,0.271371,-0.382378,-0.379318
75.000000,0.263195,-1.454569,0.021548,-6.588183,-5.385788,3.093228,-839.729751,-263.305107,21.944982,0.218572,27.970377,27.356499,0.260539,-1.450120,0.023544,,,-0.666820,0.335671,-0.245465,0.424785,0.879216,0.094552,0.582458,-2.725544,-0.944773,-0.326707,5.316345,1008.716278,-20.174269,-3.893787,-6.297342,,-0.300158,0.290598,-1.373085,-0.323244,0.844564,-0.181153,-1.709337,0.966146,0.669121,-0.728602,0.624288,0.087518,0.163504
76.000000,-0.483581,-0.685204,0.084325,-4.908410,-7.711134,-3.357420,-857.500367,-275.902770,-2.634964,-23.307830,-12.650804,-19.481360,-0.489645,-0.679413,0.087579,,,-0.693579,0.301320,-0.410027,-0.603965,0.755646,-0.394652,0.911141,-1.527492,-0.124940,-0.492595,5.036259,1008.749695,-10.110053,6.469347,-1.476840,,-0.399189,0.710675,-0.375802,-0.792896,0.365884,-0.465086,-0.501903,0.446411,1.023888,-0.556458,0.488395,0.148559,0.643710
77.000000,-0.966433,-0.639549,-0.096376,-4.728913,-8.424944,0.603560,-848.148200,-286.999273,-13.674898,-11.288093,-17.101595,-33.661552,-0.971078,-0.638727,-0.093080,4.830000,100.823296,-2.183839,0.277809,-0.741212,0.098067,0.404452,-0.425811,1.036872,-1.153570,0.213508,-0.531069,5.036259,1008.749695,-6.589852,10.517164,-5.809145,,-0.748090,0.729795,-0.188208,-0.475027,0.621714,-0.602970,-0.486198,-0.165787,1.294438,-0.326339,0.361978,-0.222038,0.827052
78.000000,-0.724173,-0.658491,-0.008232,-6.608373,-6.118046,3.719361,-844.962632,-283.567977,-26.350652,-5.687998,2.551638,-21.900890,-0.726254,-0.657139,-0.005921,,,2.275798,0.171915,-0.898204,0.515065,-0.108405,-0.361392,0.678445,-1.408991,0.173635,-0.533305,3.540707,1008.928757,-7.200531,7.821288,-8.949478,,-0.667492,0.815919,-0.297192,-0.273015,0.890293,-0.344409,-0.860361,-0.247416,1.122924,0.047911,0.124086,-0.550415,0.810595
79.000000,-0.311717,-0.709809,0.155417,-8.199836,-5.076804,1.145769,-841.831833,-286.902520,-44.701287,8.963478,16.102667,-32.172599,-0.316003,-0.709162,0.157381,4.390000,100.821678,2.217647,-0.059756,-0.862609,0.135330,-0.410787,-0.264046,0.544567,-1.912538,-0.172417,-0.516876,3.540707,1008.928757,-10.557199,3.394479,-6.215167,,-0.325230,0.482098,-0.503793,-0.549662,0.808982,-0.145188,-0.962306,0.215310,0.918888,0.388278,0.033673,-0.652616,0.637789
80.000000,-0.409449,-0.595860,0.038613,-7.126480,-6.384264,-2.030827,-823.774134,-303.154586,-37.359863,20.003520,-9.851276,-34.706509,-0.412121,-0.592046,0.041757,,,1.764567,-0.317742,-0.682904,-0.280344,-0.624402,-0.179106,0.709676,-1.650243,-0.044957,-0.512728,3.540707,1008.928757,-9.083196,5.931508,-2.999744,,-0.285906,0.515302,-0.342029,-0.761797,0.563523,-0.310609,-0.577205,0.274337,1.007976,0.690256,-0.054035,-0.582984,0.413227
81.000000,-0.590543,-0.407574,-0.176188,-6.460364,-6.986305,-2.324050,-823.926227,-298.855709,-33.230332,8.467706,-33.017416,-18.172095,-0.594553,-0.404248,-0.172450,,,1.144344,-0.405575,-0.433176,-0.344931,-0.794409,-0.073519,0.792972,-1.141649,0.101516,-0.438925,,,-4.745462,7.977428,-1.975168,,-0.730887,0.387776,-0.180445,-0.758046,0.505486,-0.405612,-0.191052,-0.044156,0.990875,0.819266,-0.212467,-0.493633,0.151494
82.000000,-0.852782,-0.647513,-0.048322,-6.937399,-6.917051,-0.058476,-819.587329,-282.873640,-15.125982,7.193700,-68.600826,6.010417,-0.856067,-0.644478,-0.046244,3.710000,100.842270,0.020088,-0.379762,-0.007096,-0.008915,-0.911534,-0.000625,0.782952,-1.409892,0.254006,-0.560370,3.606766,1008.920975,-6.888822,9.412570,-5.435472,,-0.740503,0.754669,-0.190827,-0.616041,0.711794,-0.333476,-0.532750,-0.215986,1.181463,0.794340,-0.491992,-0.284411,-0.148425
83.000000,-0.730467,-0.957892,-0.135132,-7.295863,-6.476452,-0.678451,-842.842822,-281.615444,-4.560626,-14.628653,-56.740581,1.432001,-0.733230,-0.958112,-0.134042,,,-1.094714,-0.270952,0.493334,-0.091690,-0.779166,0.213698,0.721466,-1.736954,0.198917,-0.617498,3.760021,1008.902664,-9.730808,8.426863,-5.372707,,-0.807021,0.643461,-0.528741,-0.698489,0.666827,-0.246502,-0.683449,-0.010741,1.165214,0.539358,-0.609255,-0.004110,-0.554780
84.000000,-0.768083,-0.453397,-0.783898,-8.389357,-4.087021,-2.528678,-842.554546,-277.969715,-34.106927,-9.222061,-11.567284,-19.436352,-0.770171,-0.443571,-0.784937,,,-2.159101,0.012343,0.854741,-0.293810,-0.417623,0.245653,0.436264,-1.025714,0.530413,-0.632138,5.104961,1008.741608,-1.687741,9.294650,-3.675078,,-1.136613,0.122240,-0.041115,-0.835677,0.525352,0.014851,-0.126689,-0.522521,0.956010,0.078515,-0.624344,0.319400,-0.685086
85.000000,0.036754,0.107540,0.014494,-9.525518,-1.593547,-1.666293,-829.783348,-289.216272,-41.614329,-4.541306,4.892527,-65.400702,0.035073,0.108061,0.016488,3.740001,100.847084,-2.631884,0.062880,0.962414,-0.173123,-0.243556,0.100153,0.163233,-0.950820,-0.133468,-0.181189,6.027130,1008.630981,0.206521,0.289496,-0.102530,,0.014631,-0.026297,0.014235,-0.803790,0.508596,0.307805,0.020066,-0.013557,0.063242,-0.066571,-0.629976,0.506874,-0.584382
86.000000,0.047309,0.010029,-0.015412,-9.551845,-1.623167,-1.515342,-831.547588,-284.462113,-33.229405,1.186176,8.385617,-126.110001,0.044013,0.009229,-0.013814,,,-2.610801,0.053865,0.960381,-0.157333,-0.254276,0.100430,0.166283,-0.978014,-0.205119,-0.158472,6.061481,1008.626862,-0.046323,-0.388730,-0.046668,114.000000,-0.017563,-0.054789,-0.029519,-0.816163,0.489830,0.305997,0.019888,0.056324,-0.024664,-0.074302,-0.634903,0.499832,-0.584308
87.000000,1.141504,-0.205455,-0.179574,-9.416966,0.576202,-2.298328,-842.446394,-279.834782,-12.279753,-8.020113,54.106689,-1.343898,1.137719,-0.203901,-0.177088,6.130000,100.824409,-2.073924,0.123126,0.837953,-0.239641,-0.500048,0.043480,-0.059340,-1.066312,-0.998936,0.046085,6.061481,1008.626862,-1.039936,-10.361887,2.749856,,0.547038,-0.750185,-0.694352,-0.757853,0.324052,0.546811,-0.223384,0.662224,-0.830640,0.004642,-0.808213,0.311653,-0.468701
88.000000,1.261456,-0.425833,0.042264,-8.695231,4.221734,-1.452890,-866.238938,-249.299490,23.809316,-32.496970,35.174161,12.962515,1.259941,-0.438495,0.042477,,,-0.787671,0.236954,0.350268,-0.164067,-0.885967,-0.008394,-0.445818,-1.339225,-1.038741,0.050125,5.303135,1008.717804,-4.419439,-14.413181,1.937353,,0.598164,-0.631174,-1.011590,-0.452878,0.268992,0.843231,-0.696665,0.898049,-0.978284,0.178765,-0.920992,-0.213433,-0.195522
89.000000,0.513369,-0.502543,0.407462,-9.039803,2.784402,-2.280821,-866.465568,-250.042664,24.280589,-28.596571,49.500285,-8.780872,0.508083,-0.515108,0.407499,,,0.252859,0.122865,-0.138763,-0.244781,-0.966609,0.133035,-0.289207,-1.674556,-0.550069,-0.212258,4.415314,1008.824081,-7.353357,-8.181288,0.199758,,0.473375,0.194025,-0.667775,-0.598219,0.356886,0.700464,-0.747437,0.700880,-0.220431,0.366757,-0.677309,-0.616219,-0.105104
90.000000,0.608570,-0.042641,0.043618,-8.692267,2.607847,-3.636884,-880.587787,-256.485131,4.804371,-39.442358,72.472143,79.561440,0.607603,-0.041606,0.046139,5.620000,100.819405,0.774064,0.049142,-0.388526,-0.395496,-0.885416,0.232471,-0.269746,-0.962606,-0.515495,-0.141911,3.149643,1008.975601,-0.764763,-7.666155,2.246034,,0.331590,-0.379855,-0.351763,-0.709359,0.257246,0.650359,-0.047416,0.450364,-0.616164,0.407168,-0.449864,-0.785972,-0.074006
91.000000,0.578633,-0.268179,0.140659,-8.811864,3.742608,-2.087744,-883.958670,-262.030078,-14.337868,-51.913824,-7.759571,2.643038,0.572609,-0.266273,0.143386,,,1.463173,0.067547,-0.664495,-0.232361,-0.706768,0.212568,-0.391644,-1.259370,-0.434449,-0.194597,1.984383,1009.115067,-3.522770,-8.002500,0.177337,112.000000,0.352333,-0.213226,-0.518236,-0.596425,0.312752,0.734960,-0.364288,0.544449,-0.393067,0.350100,-0.216084,-0.901907,0.088204
92.000000,0.495988,-0.227336,0.298341,-8.563929,3.290346,-3.450102,-871.295004,-263.007254,-17.147658,-22.010718,12.145500,-9.621700,0.495594,-0.232453,0.299230,2.900001,100.837486,2.039427,-0.071289,-0.838114,-0.383037,-0.476978,0.239172,-0.342267,-1.319703,-0.447855,-0.260528,1.569538,1009.164734,-4.374526,-7.685058,0.892631,113.000000,0.447918,-0.082876,-0.462372,-0.679760,0.184614,0.708006,-0.388536,0.666536,-0.370098,0.353724,0.097322,-0.915199,0.137775
93.000000,0.311248,-0.278741,0.458525,-8.720388,0.977752,-4.232957,-870.257245,-253.278498,-22.762614,-14.827958,29.122267,-48.496535,0.308523,-0.284470,0.459264,,,2.619186,-0.200079,-0.939456,-0.451236,-0.241539,0.101613,-0.100307,-1.466776,-0.470129,-0.254698,1.355511,1009.190521,-5.665600,-5.579416,1.743882,,0.426996,0.162286,-0.467742,-0.796375,0.209926,0.556671,-0.315383,0.759320,-0.200211,0.365261,0.348508,-0.806173,0.292128
94.000000,0.387494,0.275802,0.068759,-8.618223,0.189094,-4.553514,-886.611066,-254.778392,-24.033256,2.844291,19.068703,39.497119,0.385081,0.273291,0.069917,,,1.890452,-0.239666,-0.965870,-0.485886,-0.056077,0.026628,-0.019303,-0.547544,-0.445591,-0.125998,1.337013,1009.192657,3.243402,-4.559913,3.309839,,0.431353,-0.320815,0.144602,-0.811694,0.288115,0.487637,0.237840,0.149153,-0.630261,0.289343,0.495921,-0.705247,0.405891
95.000000,0.429681,0.020378,0.119496,-9.580071,1.223918,-1.577711,-904.581887,-247.558681,-31.097030,-27.365503,18.948213,-47.989565,0.426515,0.023184,0.118996,1.530001,100.870361,-2.820432,-0.089649,-0.978711,-0.163199,0.163722,0.049305,-0.125165,-0.991698,-0.360824,-0.162307,1.337013,1009.192657,-0.130490,-4.764855,-0.005821,,0.239567,-0.206640,-0.195472,-0.591675,0.554724,0.581575,-0.058433,0.235045,-0.400236,0.054803,0.570111,-0.680609,0.452341
96.000000,-0.044753,-0.088911,0.154937,-9.377160,-0.629139,-2.739044,-900.843940,-239.480006,-24.807838,-25.910706,48.429335,-73.510974,-0.046437,-0.085281,0.163462,,,-2.592188,-0.127645,-0.953154,-0.284232,0.263570,-0.068970,0.064270,-1.140143,-0.111213,-0.338049,,,-1.820719,-0.457419,-0.562747,,0.125797,0.210662,-0.103172,-0.752038,0.531166,0.378804,-0.179318,0.119963,0.046004,0.055141,0.626786,-0.543771,0.552958
97.000000,0.009727,0.003157,0.002011,-9.316192,-1.092497,-2.860960,-893.176479,-240.989396,-30.276013,-21.803208,-24.758507,-79.290748,0.007214,0.004202,0.003759,1.390000,100.872177,-2.611461,-0.128566,-0.955066,-0.297954,0.250676,-0.092067,0.111635,-1.028440,-0.041029,-0.063819,1.648808,1009.155350,-0.765845,0.695550,2.250353,,0.008872,-0.015339,-0.002441,-0.796837,0.518978,0.308849,0.192429,0.213100,0.083874,0.079065,0.612270,-0.528679,0.582404
98.000000,0.008122,0.006716,0.008173,-9.331521,-1.077410,-2.816258,-888.326173,-246.415342,-20.967594,-131.943124,-17.649707,-62.925014,0.005244,0.004901,0.008938,,,-2.606372,-0.126225,-0.954743,-0.293107,0.253449,-0.091042,0.110088,-1.073123,-0.004556,0.069901,1.648808,1009.155350,-1.182522,1.043253,3.523852,,-0.013497,0.012055,-0.021871,-0.804156,0.509545,0.305599,0.270115,0.311779,0.143162,0.086832,0.611293,-0.528294,0.582752
99.000000,-0.005764,-0.002416,-0.007181,-9.327636,-1.064926,-2.833855,-889.309506,-259.014117,-19.878990,-155.850554,44.278906,13.482931,-0.008466,-0.000784,-0.004043,,,-2.601551,-0.127059,-0.954023,-0.294951,0.255764,-0.090977,0.108807,-1.051002,-0.024071,0.000260,1.064854,1009.225159,-0.979180,0.822637,2.823245,,-0.003791,-0.016998,0.025303,-0.800093,0.516337,0.304498,0.211997,0.255343,0.112127,0.085826,0.607578,-0.532014,0.583359
100.000000,-0.005006,-0.003651,-0.002060,-9.341418,-1.034323,-2.799721,-894.386956,-242.992576,-21.640280,-214.020806,40.997269,112.465289,-0.007992,-0.006013,0.000151,1.390000,100.874725,-2.612575,-0.126180,-0.955679,-0.291191,0.250913,-0.088310,0.105668,-0.976034,-0.079708,-0.232808,1.014648,1009.231186,-0.229595,0.251925,0.516375,,-0.021479,-0.001743,0.002386,-0.775792,0.538877,0.328189,0.046184,0.055197,0.021959,0.074862,0.603632,-0.547461,0.574709
101.000000,-0.003035,0.001542,0.003959,-9.341110,-1.033513,-2.800995,-896.533073,-243.771403,-19.612751,-210.512460,42.854522,143.924212,-0.005900,0.000442,0.006212,,,-2.612750,-0.126263,-0.955693,-0.291325,0.250830,-0.088277,0.105585,-0.955773,-0.095133,-0.284234,0.948593,1009.238968,-0.031158,0.101040,0.014190,108.000000,-0.010217,0.011768,-0.001742,-0.767210,0.546675,0.335439,0.004534,0.012002,-0.002585,0.073002,0.600060,-0.554650,0.571791
102.000000,-0.000476,0.002348,-0.002310,-9.345506,-1.053618,-2.778790,-899.355167,-236.477695,-32.055974,-183.769770,68.633311,148.639367,-0.003381,0.001628,-0.000041,,,-2.614890,-0.124980,-0.956092,-0.289014,0.249751,-0.088834,0.107647,-0.953791,-0.099465,-0.292198,0.755703,1009.262314,-0.008229,0.077524,-0.086371,,-0.041489,-0.005783,0.013209,-0.765309,0.544992,0.342391,-0.008495,-0.003271,-0.005538,0.077257,0.597212,-0.560817,0.568175
103.000000,-0.001397,-0.000177,0.001044,-9.348342,-1.044210,-2.772814,-897.067729,-242.403893,-36.873115,-179.525315,66.169189,147.168504,-0.004138,-0.000625,0.002600,0.950000,100.885353,-2.616092,-0.124840,-0.956291,-0.288344,0.249280,-0.088216,0.106682,-0.954339,-0.097587,-0.290905,0.628872,1009.277344,-0.009973,0.088096,-0.079616,,-0.025838,-0.000751,0.008246,-0.758276,0.539654,0.365747,-0.002841,-0.001923,-0.005743,0.086061,0.592123,-0.576418,0.556520
104.000000,-0.001625,0.000119,0.000962,-9.345933,-1.054135,-2.777165,-878.958116,-247.917499,-23.217250,-170.698122,36.901192,156.823873,-0.004452,-0.000738,0.002963,,,-2.617358,-0.125000,-0.956410,-0.288842,0.248575,-0.088684,0.107700,-0.954399,-0.100378,-0.290323,0.607731,1009.279861,-0.012964,0.069129,-0.070623,,-0.011606,0.000740,0.003520,-0.753536,0.538613,0.376920,-0.004708,0.002496,-0.005676,0.090492,0.587863,-0.585553,0.550770
105.000000,-0.000033,0.003919,-0.001677,-9.351496,-1.047000,-2.761067,-887.939785,-243.120297,-23.346581,-186.961295,8.874156,145.264309,-0.002569,0.002248,0.000711,0.590000,100.890862,-2.617119,-0.124251,-0.956494,-0.287097,0.248822,-0.088133,0.106968,-0.954608,-0.098161,-0.282465,0.605091,1009.280243,-0.009515,0.088965,-0.000568,,0.000864,-0.002658,-0.008920,-0.757842,0.537086,0.370345,0.000132,0.005130,-0.003690,0.091293,0.588447,-0.582140,0.553603
106.000000,0.000210,-0.005619,-0.001713,-9.362160,-1.043801,-2.725872,-883.852681,-236.218460,-23.379834,-191.895266,6.585130,145.518460,-0.002337,-0.006719,0.000565,,,-2.610263,-0.122190,-0.955867,-0.283325,0.252290,-0.087925,0.106640,-1.062842,-0.015314,0.027570,0.560169,1009.285583,-1.069930,0.897741,3.018454,104.000000,2.021403,0.713114,-0.003302,-0.600433,0.345501,-0.004142,0.229723,0.204318,0.270077,0.047242,0.424266,-0.406412,0.671600
107.000000,0.001119,0.001323,0.000311,-9.355993,-1.023361,-2.754725,-882.427391,-238.756219,-21.335540,-198.951503,22.935234,140.178308,-0.001792,0.000333,0.002176,,,-2.617494,-0.124227,-0.956604,-0.286343,0.248859,-0.086861,0.104544,-0.954395,-0.097901,-0.291165,0.560169,1009.285583,-0.003842,0.062858,-0.099591,,-0.018944,0.131524,-0.158528,0.116003,-0.357987,-0.924669,0.004713,-0.029596,0.005291,0.017552,-0.055900,0.183750,0.980771
108.000000,-0.000011,0.000593,0.000413,-9.355998,-1.021390,-2.755440,-883.787506,-234.726970,-25.355044,-200.205763,27.031683,135.759053,-0.002649,-0.000877,0.001639,0.570001,100.892410,-2.617392,-0.124282,-0.956589,-0.286413,0.248920,-0.086780,0.104342,-0.954589,-0.098048,-0.290865,,,-0.003722,0.060801,-0.097694,,-0.082126,-0.010337,0.020290,0.109942,-0.295241,-0.948911,-0.009153,-0.005962,0.004433,0.018327,-0.052885,0.150569,0.986970
109.000000,0.000095,-0.000496,-0.000496,-9.355526,-1.017207,-2.758586,-882.960845,-236.990191,-23.779925,-200.312687,24.660285,137.439362,-0.002886,-0.001165,0.001657,,,-2.617357,-0.124492,-0.956567,-0.286736,0.248955,-0.086618,0.103913,-0.954038,-0.097959,-0.290629,,,-0.001647,0.057082,-0.091464,,-0.010976,-0.013848,-0.000657,0.096962,-0.259072,-0.960962,-0.000454,0.001151,0.002192,0.014227,-0.047077,0.131509,0.990090
110.000000,-0.000016,0.000553,0.000058,-9.352666,-1.004602,-2.772862,-882.988752,-236.904621,-23.770480,-200.339133,24.761071,137.357899,-0.002688,-0.001178,0.001649,0.390000,100.891609,-2.617064,-0.125360,-0.956445,-0.288223,0.249129,-0.086206,0.102621,-0.954540,-0.098050,-0.290641,,,-0.007190,0.043852,-0.078132,,0.010149,0.019300,-0.018115,0.101886,-0.258063,-0.960731,0.000484,0.000179,0.004297,0.016823,-0.049230,0.131174,0.989990
111.000000,-0.000145,0.002732,0.001363,-9.350163,-0.993879,-2.785146,-882.825928,-236.850166,-23.889275,-200.045044,24.866829,137.269569,-0.002944,0.001599,0.002414,,,-2.616946,-0.126112,-0.956357,-0.289503,0.249214,-0.085849,0.101522,-0.954208,-0.099472,-0.291718,,,-0.011539,0.017119,-0.066422,,,,,,,,,,,,,,
